{"type":"FeatureCollection","features":[{"type":"Feature","properties":{"URN":"10000","Name":"Abbey House Museum","Latitude":"53.82221","Longitude":"-1.60708"},"geometry":{"type":"Point","coordinates":[-1.60708,53.82221]}},{"type":"Feature","properties":{"URN":"10001","Name":"Alive and Kicking Theatre Company","Latitude":"53.82752","Longitude":"-1.50067"},"geometry":{"type":"Point","coordinates":[-1.50067,53.82752]}},{"type":"Feature","properties":{"URN":"10002","Name":"Art School for Rebel Girls","Latitude":"53.79997","Longitude":"-1.54066"},"geometry":{"type":"Point","coordinates":[-1.54066,53.79997]}},{"type":"Feature","properties":{"URN":"10003","Name":"Artforms - Arts Development","Latitude":"53.80738","Longitude":"-1.67876"},"geometry":{"type":"Point","coordinates":[-1.67876,53.80738]}},{"type":"Feature","properties":{"URN":"10004","Name":"Artforms - Music","Latitude":"53.79008","Longitude":"-1.56909"},"geometry":{"type":"Point","coordinates":[-1.56909,53.79008]}},{"type":"Feature","properties":{"URN":"10005","Name":"Artis Foundation","Latitude":"51.53264","Longitude":"-0.09532"},"geometry":{"type":"Point","coordinates":[-0.09532,51.53264]}},{"type":"Feature","properties":{"URN":"10006","Name":"Artlink West Yorkshire","Latitude":"53.80641","Longitude":"-1.56476"},"geometry":{"type":"Point","coordinates":[-1.56476,53.80641]}},{"type":"Feature","properties":{"URN":"10007","Name":"Assembly House","Latitude":"53.80072","Longitude":"-1.58248"},"geometry":{"type":"Point","coordinates":[-1.58248,53.80072]}},{"type":"Feature","properties":{"URN":"10008","Name":"Back Chat Brass","Latitude":"53.82543","Longitude":"-1.61822"},"geometry":{"type":"Point","coordinates":[-1.61822,53.82543]}},{"type":"Feature","properties":{"URN":"10009","Name":"Balbir Singh Dance Company","Latitude":"53.79711","Longitude":"-1.53323"},"geometry":{"type":"Point","coordinates":[-1.53323,53.79711]}},{"type":"Feature","properties":{"URN":"10010","Name":"BookTrust","Latitude":"53.79588","Longitude":"-1.54864"},"geometry":{"type":"Point","coordinates":[-1.54864,53.79588]}},{"type":"Feature","properties":{"URN":"10011","Name":"BoP DJ","Latitude":"53.79586","Longitude":"-1.53621"},"geometry":{"type":"Point","coordinates":[-1.53621,53.79586]}},{"type":"Feature","properties":{"URN":"10012","Name":"CAPA College - Dance: Contemporary and Commercial course","Latitude":"53.68327","Longitude":"-1.50619"},"geometry":{"type":"Point","coordinates":[-1.50619,53.68327]}},{"type":"Feature","properties":{"URN":"10013","Name":"Carriageworks Theatre","Latitude":"53.80117","Longitude":"-1.54835"},"geometry":{"type":"Point","coordinates":[-1.54835,53.80117]}},{"type":"Feature","properties":{"URN":"10014","Name":"Cartwright Hall Art Gallery","Latitude":"53.81218","Longitude":"-1.77161"},"geometry":{"type":"Point","coordinates":[-1.77161,53.81218]}},{"type":"Feature","properties":{"URN":"10015","Name":"Cause4","Latitude":"52.42062","Longitude":"0.74977"},"geometry":{"type":"Point","coordinates":[0.74977,52.42062]}},{"type":"Feature","properties":{"URN":"10016","Name":"Centre for Live Art Yorkshire (Live Art Bistro)","Latitude":"53.80153","Longitude":"-1.53294"},"geometry":{"type":"Point","coordinates":[-1.53294,53.80153]}},{"type":"Feature","properties":{"URN":"10017","Name":"Class Dynamix","Latitude":"53.83549","Longitude":"-1.72831"},"geometry":{"type":"Point","coordinates":[-1.72831,53.83549]}},{"type":"Feature","properties":{"URN":"10018","Name":"Come Play With Me","Latitude":"53.79711","Longitude":"-1.53323"},"geometry":{"type":"Point","coordinates":[-1.53323,53.79711]}},{"type":"Feature","properties":{"URN":"10019","Name":"Compass Live Art & Compass Festival","Latitude":"53.79711","Longitude":"-1.53323"},"geometry":{"type":"Point","coordinates":[-1.53323,53.79711]}},{"type":"Feature","properties":{"URN":"10020","Name":"Coram Shakespeare Schools Foundation","Latitude":"51.52548","Longitude":"-0.12075"},"geometry":{"type":"Point","coordinates":[-0.12075,51.52548]}},{"type":"Feature","properties":{"URN":"10021","Name":"Dance Action Zone Leeds","Latitude":"53.74391","Longitude":"-1.55035"},"geometry":{"type":"Point","coordinates":[-1.55035,53.74391]}},{"type":"Feature","properties":{"URN":"10022","Name":"Danceworks","Latitude":"53.8493","Longitude":"-1.53559"},"geometry":{"type":"Point","coordinates":[-1.53559,53.8493]}},{"type":"Feature","properties":{"URN":"10023","Name":"Design & Technology Association","Latitude":"52.07244","Longitude":"-1.32601"},"geometry":{"type":"Point","coordinates":[-1.32601,52.07244]}},{"type":"Feature","properties":{"URN":"10024","Name":"Diocese of Leeds","Latitude":"53.81967","Longitude":"-1.57005"},"geometry":{"type":"Point","coordinates":[-1.57005,53.81967]}},{"type":"Feature","properties":{"URN":"10025","Name":"East Leeds Project","Latitude":"53.81695","Longitude":"-1.49167"},"geometry":{"type":"Point","coordinates":[-1.49167,53.81695]}},{"type":"Feature","properties":{"URN":"10026","Name":"East Street Arts","Latitude":"53.79965","Longitude":"-1.52933"},"geometry":{"type":"Point","coordinates":[-1.52933,53.79965]}},{"type":"Feature","properties":{"URN":"10027","Name":"Eclipse Theatre Company Ltd","Latitude":"53.80237","Longitude":"-1.53031"},"geometry":{"type":"Point","coordinates":[-1.53031,53.80237]}},{"type":"Feature","properties":{"URN":"10028","Name":"English National Opera","Latitude":"51.50991","Longitude":"-0.12627"},"geometry":{"type":"Point","coordinates":[-0.12627,51.50991]}},{"type":"Feature","properties":{"URN":"10030","Name":"Geraldine Connor Foundation","Latitude":"53.80237","Longitude":"-1.53031"},"geometry":{"type":"Point","coordinates":[-1.53031,53.80237]}},{"type":"Feature","properties":{"URN":"10031","Name":"Getaway girls","Latitude":"53.81589","Longitude":"-1.47791"},"geometry":{"type":"Point","coordinates":[-1.47791,53.81589]}},{"type":"Feature","properties":{"URN":"10032","Name":"Harewood House","Latitude":"53.89688","Longitude":"-1.52727"},"geometry":{"type":"Point","coordinates":[-1.52727,53.89688]}},{"type":"Feature","properties":{"URN":"10033","Name":"Heads Together: Chapel FM Arts Centre","Latitude":"53.81745","Longitude":"-1.45866"},"geometry":{"type":"Point","coordinates":[-1.45866,53.81745]}},{"type":"Feature","properties":{"URN":"10034","Name":"Imagine if","Latitude":"53.79835","Longitude":"-1.57136"},"geometry":{"type":"Point","coordinates":[-1.57136,53.79835]}},{"type":"Feature","properties":{"URN":"10035","Name":"Interplay Theatre","Latitude":"53.79888","Longitude":"-1.59738"},"geometry":{"type":"Point","coordinates":[-1.59738,53.79888]}},{"type":"Feature","properties":{"URN":"10036","Name":"Irish Arts Foundation","Latitude":"53.83458","Longitude":"-1.56622"},"geometry":{"type":"Point","coordinates":[-1.56622,53.83458]}},{"type":"Feature","properties":{"URN":"10037","Name":"Jamaica Society Leeds: Out of Many Festival","Latitude":"53.81833","Longitude":"-1.5316"},"geometry":{"type":"Point","coordinates":[-1.5316,53.81833]}},{"type":"Feature","properties":{"URN":"10038","Name":"JazzLeeds","Latitude":"53.82807","Longitude":"-1.53771"},"geometry":{"type":"Point","coordinates":[-1.53771,53.82807]}},{"type":"Feature","properties":{"URN":"10039","Name":"Junior Jam","Latitude":"53.73743","Longitude":"-1.77447"},"geometry":{"type":"Point","coordinates":[-1.77447,53.73743]}},{"type":"Feature","properties":{"URN":"10040","Name":"Leeds 2023","Latitude":"53.7939","Longitude":"-1.53774"},"geometry":{"type":"Point","coordinates":[-1.53774,53.7939]}},{"type":"Feature","properties":{"URN":"10041","Name":"Leeds Art Gallery","Latitude":"53.80015","Longitude":"-1.54814"},"geometry":{"type":"Point","coordinates":[-1.54814,53.80015]}},{"type":"Feature","properties":{"URN":"10042","Name":"Leeds Conservatoire","Latitude":"53.79823","Longitude":"-1.53125"},"geometry":{"type":"Point","coordinates":[-1.53125,53.79823]}},{"type":"Feature","properties":{"URN":"10043","Name":"Leeds Discovery Center","Latitude":"53.78932","Longitude":"-1.53143"},"geometry":{"type":"Point","coordinates":[-1.53143,53.78932]}},{"type":"Feature","properties":{"URN":"10044","Name":"Leeds Grand Theatre & Opera House Ltd","Latitude":"53.79997","Longitude":"-1.54066"},"geometry":{"type":"Point","coordinates":[-1.54066,53.79997]}},{"type":"Feature","properties":{"URN":"10045","Name":"Leeds Industrial Museum - Armley Mill","Latitude":"53.80284","Longitude":"-1.58296"},"geometry":{"type":"Point","coordinates":[-1.58296,53.80284]}},{"type":"Feature","properties":{"URN":"10046","Name":"Leeds Lieder Festival and Season Events","Latitude":"53.79607","Longitude":"-1.55363"},"geometry":{"type":"Point","coordinates":[-1.55363,53.79607]}},{"type":"Feature","properties":{"URN":"10047","Name":"Leeds Playhouse","Latitude":"53.79809","Longitude":"-1.53441"},"geometry":{"type":"Point","coordinates":[-1.53441,53.79809]}},{"type":"Feature","properties":{"URN":"10048","Name":"Leeds University","Latitude":"53.80795","Longitude":"-1.55332"},"geometry":{"type":"Point","coordinates":[-1.55332,53.80795]}},{"type":"Feature","properties":{"URN":"10049","Name":"Left Bank","Latitude":"53.80961","Longitude":"-1.57443"},"geometry":{"type":"Point","coordinates":[-1.57443,53.80961]}},{"type":"Feature","properties":{"URN":"10050","Name":"Mafwa Theatre","Latitude":"53.79965","Longitude":"-1.52933"},"geometry":{"type":"Point","coordinates":[-1.52933,53.79965]}},{"type":"Feature","properties":{"URN":"10051","Name":"MAP Charity (Music and Arts Production)","Latitude":"53.8025","Longitude":"-1.53065"},"geometry":{"type":"Point","coordinates":[-1.53065,53.8025]}},{"type":"Feature","properties":{"URN":"10052","Name":"Mill School of Performing Arts","Latitude":"53.80122","Longitude":"-1.56702"},"geometry":{"type":"Point","coordinates":[-1.56702,53.80122]}},{"type":"Feature","properties":{"URN":"10054","Name":"Musical Futures","Latitude":"53.44724","Longitude":"-2.62881"},"geometry":{"type":"Point","coordinates":[-2.62881,53.44724]}},{"type":"Feature","properties":{"URN":"10055","Name":"National Gallery (London)","Latitude":"51.50909","Longitude":"-0.12768"},"geometry":{"type":"Point","coordinates":[-0.12768,51.50909]}},{"type":"Feature","properties":{"URN":"10056","Name":"National Society for Education in Art and Design","Latitude":"51.42377","Longitude":"-2.19228"},"geometry":{"type":"Point","coordinates":[-2.19228,51.42377]}},{"type":"Feature","properties":{"URN":"10057","Name":"National Theatre","Latitude":"51.50686","Longitude":"-0.11408"},"geometry":{"type":"Point","coordinates":[-0.11408,51.50686]}},{"type":"Feature","properties":{"URN":"10058","Name":"Northern Ballet","Latitude":"53.79765","Longitude":"-1.53289"},"geometry":{"type":"Point","coordinates":[-1.53289,53.79765]}},{"type":"Feature","properties":{"URN":"10059","Name":"Northern Ballet (Spotted programme)","Latitude":"53.79765","Longitude":"-1.53289"},"geometry":{"type":"Point","coordinates":[-1.53289,53.79765]}},{"type":"Feature","properties":{"URN":"10060","Name":"Northern Opera Group","Latitude":"53.79765","Longitude":"-1.53289"},"geometry":{"type":"Point","coordinates":[-1.53289,53.79765]}},{"type":"Feature","properties":{"URN":"10061","Name":"Northern School of Contemporary Dance","Latitude":"53.81306","Longitude":"-1.53347"},"geometry":{"type":"Point","coordinates":[-1.53347,53.81306]}},{"type":"Feature","properties":{"URN":"10062","Name":"Northern School of Contemporary Dance (CAT Programme)","Latitude":"53.81306","Longitude":"-1.53347"},"geometry":{"type":"Point","coordinates":[-1.53347,53.81306]}},{"type":"Feature","properties":{"URN":"10063","Name":"Northern School of Contemportary Dance (Youth Programme)","Latitude":"53.81306","Longitude":"-1.53347"},"geometry":{"type":"Point","coordinates":[-1.53347,53.81306]}},{"type":"Feature","properties":{"URN":"10064","Name":"Off/Stage Zine","Latitude":"53.80237","Longitude":"-1.53031"},"geometry":{"type":"Point","coordinates":[-1.53031,53.80237]}},{"type":"Feature","properties":{"URN":"10065","Name":"Open Source Arts","Latitude":"53.80145","Longitude":"-1.5721"},"geometry":{"type":"Point","coordinates":[-1.5721,53.80145]}},{"type":"Feature","properties":{"URN":"10066","Name":"Opera North - Howard Opera Centre","Latitude":"53.79954","Longitude":"-1.54104"},"geometry":{"type":"Point","coordinates":[-1.54104,53.79954]}},{"type":"Feature","properties":{"URN":"10067","Name":"Opera North - In Harmony Opera North","Latitude":"53.79954","Longitude":"-1.54104"},"geometry":{"type":"Point","coordinates":[-1.54104,53.79954]}},{"type":"Feature","properties":{"URN":"10068","Name":"Orchestras Live","Latitude":"53.79123","Longitude":"-1.53811"},"geometry":{"type":"Point","coordinates":[-1.53811,53.79123]}},{"type":"Feature","properties":{"URN":"10069","Name":"Otley Chamber Orchestra","Latitude":"53.90753","Longitude":"-1.69326"},"geometry":{"type":"Point","coordinates":[-1.69326,53.90753]}},{"type":"Feature","properties":{"URN":"10070","Name":"Otley Courthouse","Latitude":"53.90622","Longitude":"-1.6928"},"geometry":{"type":"Point","coordinates":[-1.6928,53.90622]}},{"type":"Feature","properties":{"URN":"10071","Name":"Pavilion","Latitude":"53.79997","Longitude":"-1.54066"},"geometry":{"type":"Point","coordinates":[-1.54066,53.79997]}},{"type":"Feature","properties":{"URN":"10073","Name":"People Powered Press","Latitude":"53.83606","Longitude":"-1.78741"},"geometry":{"type":"Point","coordinates":[-1.78741,53.83606]}},{"type":"Feature","properties":{"URN":"10074","Name":"Phoenix Dance Theatre","Latitude":"53.79765","Longitude":"-1.53289"},"geometry":{"type":"Point","coordinates":[-1.53289,53.79765]}},{"type":"Feature","properties":{"URN":"10075","Name":"Phoenix Dance Theatre - Youth Academy","Latitude":"53.79765","Longitude":"-1.53289"},"geometry":{"type":"Point","coordinates":[-1.53289,53.79765]}},{"type":"Feature","properties":{"URN":"10076","Name":"Pilot Theatre","Latitude":"53.95896","Longitude":"-1.08419"},"geometry":{"type":"Point","coordinates":[-1.08419,53.95896]}},{"type":"Feature","properties":{"URN":"10077","Name":"Place2Be","Latitude":"53.79651","Longitude":"-1.54085"},"geometry":{"type":"Point","coordinates":[-1.54085,53.79651]}},{"type":"Feature","properties":{"URN":"10078","Name":"Project Space Leeds","Latitude":"53.80795","Longitude":"-1.55332"},"geometry":{"type":"Point","coordinates":[-1.55332,53.80795]}},{"type":"Feature","properties":{"URN":"10079","Name":"Pyramid of Arts","Latitude":"53.78772","Longitude":"-1.56601"},"geometry":{"type":"Point","coordinates":[-1.56601,53.78772]}},{"type":"Feature","properties":{"URN":"10080","Name":"Red Kite Alliance Collaborative Events","Latitude":"53.98338","Longitude":"-1.54739"},"geometry":{"type":"Point","coordinates":[-1.54739,53.98338]}},{"type":"Feature","properties":{"URN":"10081","Name":"Red Kite Alliance ","Latitude":"53.98338","Longitude":"-1.54739"},"geometry":{"type":"Point","coordinates":[-1.54739,53.98338]}},{"type":"Feature","properties":{"URN":"10082","Name":"Red Ladder Theatre Company Limited","Latitude":"53.79696","Longitude":"-1.5332"},"geometry":{"type":"Point","coordinates":[-1.5332,53.79696]}},{"type":"Feature","properties":{"URN":"10083","Name":"Riptide","Latitude":"53.79965","Longitude":"-1.52933"},"geometry":{"type":"Point","coordinates":[-1.52933,53.79965]}},{"type":"Feature","properties":{"URN":"10084","Name":"RJC Dance","Latitude":"53.81216","Longitude":"-1.53465"},"geometry":{"type":"Point","coordinates":[-1.53465,53.81216]}},{"type":"Feature","properties":{"URN":"10085","Name":"Scalakids","Latitude":"53.83981","Longitude":"-1.62192"},"geometry":{"type":"Point","coordinates":[-1.62192,53.83981]}},{"type":"Feature","properties":{"URN":"10086","Name":"Seven Arts Leeds CIC","Latitude":"53.82807","Longitude":"-1.53771"},"geometry":{"type":"Point","coordinates":[-1.53771,53.82807]}},{"type":"Feature","properties":{"URN":"10087","Name":"Shine Trust","Latitude":"53.7955","Longitude":"-1.55003"},"geometry":{"type":"Point","coordinates":[-1.55003,53.7955]}},{"type":"Feature","properties":{"URN":"10088","Name":"Skippko","Latitude":"53.78772","Longitude":"-1.56601"},"geometry":{"type":"Point","coordinates":[-1.56601,53.78772]}},{"type":"Feature","properties":{"URN":"10089","Name":"Slung Low Ltd","Latitude":"53.78576","Longitude":"-1.56412"},"geometry":{"type":"Point","coordinates":[-1.56412,53.78576]}},{"type":"Feature","properties":{"URN":"10090","Name":"South Asian Arts-uk (SAA-uk)","Latitude":"53.80237","Longitude":"-1.53031"},"geometry":{"type":"Point","coordinates":[-1.53031,53.80237]}},{"type":"Feature","properties":{"URN":"10091","Name":"SPACE2","Latitude":"53.80273","Longitude":"-1.49415"},"geometry":{"type":"Point","coordinates":[-1.49415,53.80273]}},{"type":"Feature","properties":{"URN":"10092","Name":"Sunnybank Mills","Latitude":"53.81406","Longitude":"-1.67147"},"geometry":{"type":"Point","coordinates":[-1.67147,53.81406]}},{"type":"Feature","properties":{"URN":"10093","Name":"Thackray Medical Museum","Latitude":"53.80818","Longitude":"-1.51867"},"geometry":{"type":"Point","coordinates":[-1.51867,53.80818]}},{"type":"Feature","properties":{"URN":"10094","Name":"The Hepworth Wakefield","Latitude":"53.67592","Longitude":"-1.49114"},"geometry":{"type":"Point","coordinates":[-1.49114,53.67592]}},{"type":"Feature","properties":{"URN":"10095","Name":"The Leeds Library","Latitude":"53.79748","Longitude":"-1.54349"},"geometry":{"type":"Point","coordinates":[-1.54349,53.79748]}},{"type":"Feature","properties":{"URN":"10096","Name":"The Little Bookshop Ltd","Latitude":"53.82807","Longitude":"-1.53771"},"geometry":{"type":"Point","coordinates":[-1.53771,53.82807]}},{"type":"Feature","properties":{"URN":"10097","Name":"The Tetley Gallery","Latitude":"53.79312","Longitude":"-1.54087"},"geometry":{"type":"Point","coordinates":[-1.54087,53.79312]}},{"type":"Feature","properties":{"URN":"10098","Name":"The Wardrobe","Latitude":"53.79711","Longitude":"-1.53323"},"geometry":{"type":"Point","coordinates":[-1.53323,53.79711]}},{"type":"Feature","properties":{"URN":"10099","Name":"Theatre Company Blah Blah Blah","Latitude":"53.79888","Longitude":"-1.59738"},"geometry":{"type":"Point","coordinates":[-1.59738,53.79888]}},{"type":"Feature","properties":{"URN":"10100","Name":"This Green Moon","Latitude":"53.76127","Longitude":"-1.42742"},"geometry":{"type":"Point","coordinates":[-1.42742,53.76127]}},{"type":"Feature","properties":{"URN":"10101","Name":"Total Dance","Latitude":"53.74469","Longitude":"-1.59459"},"geometry":{"type":"Point","coordinates":[-1.59459,53.74469]}},{"type":"Feature","properties":{"URN":"10102","Name":"Tribe Arts","Latitude":"53.80237","Longitude":"-1.53031"},"geometry":{"type":"Point","coordinates":[-1.53031,53.80237]}},{"type":"Feature","properties":{"URN":"10103","Name":"Tutti Frutti","Latitude":"53.81264","Longitude":"-1.51707"},"geometry":{"type":"Point","coordinates":[-1.51707,53.81264]}},{"type":"Feature","properties":{"URN":"10104","Name":"UK Cheerleading Association","Latitude":"53.34154","Longitude":"-2.12736"},"geometry":{"type":"Point","coordinates":[-2.12736,53.34154]}},{"type":"Feature","properties":{"URN":"10105","Name":"University of Leeds - Cultural Institute","Latitude":"53.80795","Longitude":"-1.55332"},"geometry":{"type":"Point","coordinates":[-1.55332,53.80795]}},{"type":"Feature","properties":{"URN":"10106","Name":"We are IVE","Latitude":"53.79491","Longitude":"-1.5631"},"geometry":{"type":"Point","coordinates":[-1.5631,53.79491]}},{"type":"Feature","properties":{"URN":"10107","Name":"Wrongsemble","Latitude":"53.79002","Longitude":"-1.55783"},"geometry":{"type":"Point","coordinates":[-1.55783,53.79002]}},{"type":"Feature","properties":{"URN":"10108","Name":"Yorkshire Dance","Latitude":"53.79711","Longitude":"-1.53323"},"geometry":{"type":"Point","coordinates":[-1.53323,53.79711]}},{"type":"Feature","properties":{"URN":"10109","Name":"Yorkshire Sculpture Park","Latitude":"53.60729","Longitude":"-1.56315"},"geometry":{"type":"Point","coordinates":[-1.56315,53.60729]}}]}